[
  {
    "name": "North Drop Off",
    "address": "6660 N Industrial Road",
    "city": "Milwaukee",
    "state": "WI",
    "zip": 53223,
    "latitude": 43.13953,
    "longitude": -87.9943,
    "tag": "Drop Off",
    "website": "https://city.milwaukee.gov/mpw/divisions/operations/environmental/sanitation/DropOff",
    "style": "dropOff"
  },
  {
    "name": "South Drop Off",
    "address": "3879 W Lincoln Avenue",
    "city": "Milwaukee",
    "state": "WI",
    "zip": 53215,
    "latitude": 43.00242,
    "longitude": -87.96142,
    "tag": "Drop Off",
    "website": "https://city.milwaukee.gov/mpw/divisions/operations/environmental/sanitation/DropOff",
    "style": "dropOff"
  },
  {
    "name": "Best Buy- Greenfield",
    "address": "4610 S 76th St",
    "city": "Greenfield",
    "state": "WI",
    "zip": 53220,
    "latitude": 42.96118,
    "longitude": -88.00701,
    "tag": "Retailer",
    "website": "https://www.bestbuy.com/site/services/recycling/pcmcat149900050025.c?id=pcmcat149900050025",
    "style": "retailer"
  },
  {
    "name": "Best Buy- Wauwatosa",
    "address": "2401 N Mayfair Rd",
    "city": "Wauwatosa",
    "state": "WI",
    "zip": 53226,
    "latitude": 43.06241,
    "longitude": -88.04869,
    "tag": "eWaste",
    "website": "https://www.bestbuy.com/site/services/recycling/pcmcat149900050025.c?id=pcmcat149900050025",
    "style": "eWaste"
  },
  {
    "name": "Office Depot - Loomis Center",
    "address": "3555 S 27th Street",
    "city": "Milwaukee",
    "state": "WI",
    "zip": 53221,
    "latitude": 42.98025,
    "longitude": -87.94851,
    "tag": "eWaste",
    "website": "https://business.officedepot.com/a/content/prelogin/recycling-solutions/",
    "style": "eWaste"
  },
  {
    "name": "OfficeMax - West Allis",
    "address": "10707 W Cleveland Ave",
    "city": "West Allis",
    "state": "WI",
    "zip": 53227,
    "latitude": 42.99484,
    "longitude": -88.04607,
    "tag": "eWaste",
    "website": "https://business.officedepot.com/a/content/prelogin/recycling-solutions/",
    "style": "eWaste"
  },
  {
    "name": "ecoATM",
    "address": "4140 W Greenfield Ave",
    "city": "West Milwaukee",
    "state": "WI",
    "zip": 53215,
    "latitude": 43.01719,
    "longitude": -87.96384,
    "tag": "ecoATM",
    "website": "https://ecoatm.com/",
    "style": "ecoAtm"
  },
  {
    "name": "Stone Creek Coffee - Factory Caf√©",
    "address": "422 N 5th Street",
    "city": "Milwaukee",
    "state": "WI",
    "zip": 53203,
    "latitude": 43.03526,
    "longitude": -87.91708,
    "tag": "Local Recycle Bin",
    "website": "",
    "style": "localBin"
  },
  {
    "name": "Stone Creek Coffee - Downer Cafe & Kitchen",
    "address": "2650 N Downer Ave",
    "city": "Milwaukee",
    "state": "WI",
    "zip": 53211,
    "latitude": 43.0728,
    "longitude": -87.87796,
    "tag": "Local Recycle Bin",
    "website": "",
    "style": "localBin"
  },
  {
    "name": "The UPS Store",
    "address": "1345 N Jefferson St",
    "city": "Milwaukee",
    "state": "WI",
    "zip": 53202,
    "latitude": 43.04988,
    "longitude": -87.90602,
    "tag": "Local Recycle Bin",
    "website": "",
    "style": "localBin"
  },
  {
    "name": "Pick n Save",
    "address": "1123 N Van Buren St",
    "city": "Milwaukee",
    "state": "WI",
    "zip": 53203,
    "latitude": 43.04511,
    "longitude": -87.90419,
    "tag": "Bags",
    "website": "",
    "style": "bags"
  },
  {
    "name": "Kohl's Point Loomis",
    "address": "3737 S 27th Street",
    "city": "Milwaukee",
    "state": "WI",
    "zip": 53221,
    "latitude": 42.97676,
    "longitude": -87.9495,
    "tag": "Bags",
    "website": "https://corporate.kohls.com/corporate-responsibility/sustainability",
    "style": "bags"
  },
  {
    "name": "Pick n Save",
    "address": "605 E Lyon St",
    "city": "Milwaukee",
    "state": "WI",
    "zip": 53202,
    "latitude": 43.04888,
    "longitude": -87.90418,
    "tag": "Bags",
    "website": "",
    "style": "bags"
  },
  {
    "name": "Kohl's Bayshore",
    "address": "5650 N Bayshore Dr",
    "city": "Glendale",
    "state": "WI",
    "zip": 53217,
    "latitude": 43.12024,
    "longitude": -87.91308,
    "tag": "Bags",
    "website": "",
    "style": "bags"
  }
]
